[
	{
		"idbuildings" : 131,
		"building_name" : "Abudarham",
		"year_built" : "1821",
		"year_opened" : "1821",
		"year_nonextant" : null,
		"idlocation" : 21,
		"city" : "Gibraltar",
		"state" : null,
		"country" : "United Kingdom",
		"region" : "Southern Europe",
		"lat" : 36.143190,
		"lon" : -5.353700,
		"loc_def" : "exact",
		"image_file" : null,
		"file_path" : "/assets/images/131/"
	},
	{
		"idbuildings" : 98,
		"building_name" : "Beraka ve Shalom ve Gemilut Hasadim",
		"year_built" : null,
		"year_opened" : "1833",
		"year_nonextant" : null,
		"idlocation" : 20,
		"city" : "Charlotte Amalie",
		"state" : null,
		"country" : "St. Thomas",
		"region" : "Caribbean",
		"lat" : 18.342754,
		"lon" : -64.932636,
		"loc_def" : "exact",
		"image_file" : null,
		"file_path" : "/assets/images/98/"
	},
	{
		"idbuildings" : 126,
		"building_name" : "Beraka ve Shalom ve Gemilut Hasadim (I)",
		"year_built" : "1796",
		"year_opened" : "1796",
		"year_nonextant" : "1804",
		"idlocation" : 20,
		"city" : "Charlotte Amalie",
		"state" : null,
		"country" : "St. Thomas",
		"region" : "Caribbean",
		"lat" : 18.342754,
		"lon" : -64.932636,
		"loc_def" : "gen",
		"image_file" : null,
		"file_path" : "/assets/images/126/"
	},
	{
		"idbuildings" : 128,
		"building_name" : "Beraka ve Shalom ve Gemilut Hasadim (II)",
		"year_built" : "1812-13",
		"year_opened" : "1813",
		"year_nonextant" : "1831",
		"idlocation" : 20,
		"city" : "Charlotte Amalie",
		"state" : null,
		"country" : "St. Thomas",
		"region" : "Caribbean",
		"lat" : 18.342754,
		"lon" : -64.932636,
		"loc_def" : "gen",
		"image_file" : null,
		"file_path" : "/assets/images/128/"
	},
	{
		"idbuildings" : 17,
		"building_name" : "Berakha ve Shalom Synagogue",
		"year_built" : null,
		"year_opened" : "1685",
		"year_nonextant" : "after 1832",
		"idlocation" : 10,
		"city" : "Jodensavanne",
		"state" : null,
		"country" : "Suriname",
		"region" : "South America",
		"lat" : 5.429176,
		"lon" : -54.984273,
		"loc_def" : "exact",
		"image_file" : "/assets/images/17/017_035.jpg",
		"file_path" : "/assets/images/17/"
	},
	{
		"idbuildings" : 101,
		"building_name" : "Beth Elohim",
		"year_built" : "",
		"year_opened" : "1841",
		"year_nonextant" : "",
		"idlocation" : 23,
		"city" : "Charleston",
		"state" : "South Carolina",
		"country" : "United States",
		"region" : "North America",
		"lat" : 32.782300,
		"lon" : -79.932732,
		"loc_def" : "exact",
		"image_file" : null,
		"file_path" : "/assets/images/101/"
	},
	{
		"idbuildings" : 14,
		"building_name" : "Beth Elohim Synagogue",
		"year_built" : "1792",
		"year_opened" : "1794",
		"year_nonextant" : "1838",
		"idlocation" : 23,
		"city" : "Charleston",
		"state" : "South Carolina",
		"country" : "United States",
		"region" : "North America",
		"lat" : 32.782300,
		"lon" : -79.932732,
		"loc_def" : "exact",
		"image_file" : "/assets/images/14/014_001.jpg",
		"file_path" : "/assets/images/14/"
	},
	{
		"idbuildings" : 138,
		"building_name" : "Beth Israel",
		"year_built" : null,
		"year_opened" : "1618",
		"year_nonextant" : null,
		"idlocation" : 1,
		"city" : "Amsterdam",
		"state" : null,
		"country" : "Netherlands",
		"region" : "Western Europe",
		"lat" : 52.368577,
		"lon" : 4.902246,
		"loc_def" : "exact",
		"image_file" : null,
		"file_path" : "/assets/images/138/"
	},
	{
		"idbuildings" : 136,
		"building_name" : "Beth Jacob",
		"year_built" : null,
		"year_opened" : "1614",
		"year_nonextant" : null,
		"idlocation" : 1,
		"city" : "Amsterdam",
		"state" : null,
		"country" : "Netherlands",
		"region" : "Western Europe",
		"lat" : 52.368590,
		"lon" : 4.900492,
		"loc_def" : "exact",
		"image_file" : null,
		"file_path" : "/assets/images/136/"
	},
	{
		"idbuildings" : 144,
		"building_name" : "Beth Jacob",
		"year_built" : null,
		"year_opened" : "1692",
		"year_nonextant" : "1743",
		"idlocation" : 41,
		"city" : "The Hague",
		"state" : null,
		"country" : "Netherlands",
		"region" : "Western Europe",
		"lat" : 52.082586,
		"lon" : 4.316414,
		"loc_def" : "est",
		"image_file" : null,
		"file_path" : "/assets/images/144/"
	},
	{
		"idbuildings" : 132,
		"building_name" : "Beth Shalome",
		"year_built" : "1822",
		"year_opened" : "1822",
		"year_nonextant" : "1934",
		"idlocation" : 28,
		"city" : "Richmond",
		"state" : "Virginia",
		"country" : "United States",
		"region" : "North America",
		"lat" : 37.537307,
		"lon" : -77.429486,
		"loc_def" : "exact",
		"image_file" : null,
		"file_path" : "/assets/images/132/"
	},
	{
		"idbuildings" : 0,
		"building_name" : "Bevis Marks Synagogue",
		"year_built" : "1699",
		"year_opened" : "1701",
		"year_nonextant" : null,
		"idlocation" : 8,
		"city" : "London",
		"state" : null,
		"country" : "England",
		"region" : "Western Europe",
		"lat" : 51.514473,
		"lon" : -0.078938,
		"loc_def" : "exact",
		"image_file" : "/assets/images/0/000_237.jpg",
		"file_path" : "/assets/images/0/"
	},
	{
		"idbuildings" : 1,
		"building_name" : "Creechurch Lane Synagogue",
		"year_built" : "1656",
		"year_opened" : "1657",
		"year_nonextant" : "1674",
		"idlocation" : 8,
		"city" : "London",
		"state" : null,
		"country" : "England",
		"region" : "Western Europe",
		"lat" : 51.513685,
		"lon" : -0.079298,
		"loc_def" : "exact",
		"image_file" : "/assets/images/1/001_001.jpg",
		"file_path" : "/assets/images/1/"
	},
	{
		"idbuildings" : 2,
		"building_name" : "Creechurch Lane Synagogue [1675]",
		"year_built" : "1674",
		"year_opened" : "1675",
		"year_nonextant" : null,
		"idlocation" : 8,
		"city" : "London",
		"state" : null,
		"country" : "England",
		"region" : "Western Europe",
		"lat" : 51.513685,
		"lon" : -0.079298,
		"loc_def" : "exact",
		"image_file" : "/assets/images/2/002_004.jpg",
		"file_path" : "/assets/images/2/"
	},
	{
		"idbuildings" : 122,
		"building_name" : "Darkhe Yesharim",
		"year_built" : "1779",
		"year_opened" : "1779",
		"year_nonextant" : "1800",
		"idlocation" : 11,
		"city" : "Paramaribo",
		"state" : null,
		"country" : "Suriname",
		"region" : "South America",
		"lat" : 5.826006,
		"lon" : -55.162124,
		"loc_def" : "est",
		"image_file" : null,
		"file_path" : "/assets/images/122/"
	},
	{
		"idbuildings" : 10,
		"building_name" : "Dritt Shul",
		"year_built" : null,
		"year_opened" : "1700",
		"year_nonextant" : "1777",
		"idlocation" : 1,
		"city" : "Amsterdam",
		"state" : null,
		"country" : "Netherlands",
		"region" : "Western Europe",
		"lat" : 52.367259,
		"lon" : 4.903681,
		"loc_def" : "exact",
		"image_file" : "/assets/images/10/010_001.jpg",
		"file_path" : "/assets/images/10/"
	},
	{
		"idbuildings" : 142,
		"building_name" : "Dritt Sjoel",
		"year_built" : "1777",
		"year_opened" : "1778",
		"year_nonextant" : null,
		"idlocation" : 1,
		"city" : "Amsterdam",
		"state" : null,
		"country" : "Netherlands",
		"region" : "Western Europe",
		"lat" : 52.367259,
		"lon" : 4.903681,
		"loc_def" : "exact",
		"image_file" : "/assets/images/142/142_001.jpg",
		"file_path" : "/assets/images/142/"
	},
	{
		"idbuildings" : 4,
		"building_name" : "Esnoga, Talmud Torah II",
		"year_built" : "1670",
		"year_opened" : "1675",
		"year_nonextant" : null,
		"idlocation" : 1,
		"city" : "Amsterdam",
		"state" : null,
		"country" : "Netherlands",
		"region" : "Western Europe",
		"lat" : 52.367530,
		"lon" : 4.905336,
		"loc_def" : "exact",
		"image_file" : "/assets/images/4/004_030.jpg",
		"file_path" : "/assets/images/4/"
	},
	{
		"idbuildings" : 124,
		"building_name" : "Etz Chaim",
		"year_built" : "1783",
		"year_opened" : "1783",
		"year_nonextant" : null,
		"idlocation" : 21,
		"city" : "Gibraltar",
		"state" : null,
		"country" : "United Kingdom",
		"region" : "Southern Europe",
		"lat" : 36.142370,
		"lon" : -5.354050,
		"loc_def" : "exact",
		"image_file" : null,
		"file_path" : "/assets/images/124/"
	},
	{
		"idbuildings" : 16,
		"building_name" : "First Synagogue Curacao, Mikve Israel I",
		"year_built" : "1674",
		"year_opened" : "1674",
		"year_nonextant" : "1692",
		"idlocation" : 6,
		"city" : "Willemstad",
		"state" : null,
		"country" : "Curacao",
		"region" : "Caribbean",
		"lat" : 12.104742,
		"lon" : -68.932670,
		"loc_def" : "gen",
		"image_file" : null,
		"file_path" : "/assets/images/16/"
	},
	{
		"idbuildings" : 133,
		"building_name" : "Great Synagogue (Duke's Place, enlargement)",
		"year_built" : "1765",
		"year_opened" : "1766",
		"year_nonextant" : "1790",
		"idlocation" : 8,
		"city" : "London",
		"state" : null,
		"country" : "England",
		"region" : "Western Europe",
		"lat" : 51.514313,
		"lon" : -0.077881,
		"loc_def" : "exact",
		"image_file" : "/assets/images/133/133_003.jpg",
		"file_path" : "/assets/images/133/"
	},
	{
		"idbuildings" : 21,
		"building_name" : "Great Synagogue (first, near Duke's Place)",
		"year_built" : null,
		"year_opened" : "1692",
		"year_nonextant" : null,
		"idlocation" : 8,
		"city" : "London",
		"state" : null,
		"country" : "England",
		"region" : "Western Europe",
		"lat" : 51.514313,
		"lon" : -0.077881,
		"loc_def" : "exact",
		"image_file" : null,
		"file_path" : "/assets/images/21/"
	},
	{
		"idbuildings" : 31,
		"building_name" : "Great Synagogue (third, near Duke's Place)",
		"year_built" : "1787",
		"year_opened" : "1790",
		"year_nonextant" : "1941",
		"idlocation" : 8,
		"city" : "London",
		"state" : null,
		"country" : "England",
		"region" : "Western Europe",
		"lat" : 51.514313,
		"lon" : -0.077881,
		"loc_def" : "exact",
		"image_file" : "/assets/images/31/031_040.png",
		"file_path" : "/assets/images/31/"
	},
	{
		"idbuildings" : 22,
		"building_name" : "Great Synagogue [Moses Hart's Shul] (second, near Duke's Place)",
		"year_built" : "1720",
		"year_opened" : "1722",
		"year_nonextant" : "1765",
		"idlocation" : 8,
		"city" : "London",
		"state" : null,
		"country" : "England",
		"region" : "Western Europe",
		"lat" : 51.514313,
		"lon" : -0.077881,
		"loc_def" : "exact",
		"image_file" : "/assets/images/22/022_002.jpg",
		"file_path" : "/assets/images/22/"
	},
	{
		"idbuildings" : 7,
		"building_name" : "Grote Sjoel (Great Synagogue)",
		"year_built" : "1670",
		"year_opened" : "1671",
		"year_nonextant" : null,
		"idlocation" : 1,
		"city" : "Amsterdam",
		"state" : null,
		"country" : "Netherlands",
		"region" : "Western Europe",
		"lat" : 52.367274,
		"lon" : 4.903893,
		"loc_def" : "exact",
		"image_file" : "/assets/images/7/007_004.jpg",
		"file_path" : "/assets/images/7/"
	},
	{
		"idbuildings" : 146,
		"building_name" : "High German synagogue",
		"year_built" : null,
		"year_opened" : "1648",
		"year_nonextant" : "1671",
		"idlocation" : 1,
		"city" : "Amsterdam",
		"state" : null,
		"country" : "Netherlands",
		"region" : "Western Europe",
		"lat" : 52.367887,
		"lon" : 4.901825,
		"loc_def" : "exact",
		"image_file" : "/assets/images/146/146_002.jpg",
		"file_path" : "/assets/images/146/"
	},
	{
		"idbuildings" : 135,
		"building_name" : "Honen Dal ",
		"year_built" : "1725",
		"year_opened" : "1726",
		"year_nonextant" : null,
		"idlocation" : 41,
		"city" : "The Hague",
		"state" : null,
		"country" : "Netherlands",
		"region" : "Western Europe",
		"lat" : 52.084390,
		"lon" : 4.315817,
		"loc_def" : "exact",
		"image_file" : "/assets/images/135/135_001.jpg",
		"file_path" : "/assets/images/135/"
	},
	{
		"idbuildings" : 145,
		"building_name" : "Honen Dal I",
		"year_built" : "",
		"year_opened" : "1698",
		"year_nonextant" : "1725",
		"idlocation" : 41,
		"city" : "The Hague",
		"state" : null,
		"country" : "Netherlands",
		"region" : "Western Europe",
		"lat" : 52.074668,
		"lon" : 4.318481,
		"loc_def" : "est",
		"image_file" : null,
		"file_path" : "/assets/images/145/"
	},
	{
		"idbuildings" : 41,
		"building_name" : "Honen Dalim Synagogue I",
		"year_built" : "1739",
		"year_opened" : "1739",
		"year_nonextant" : "1772",
		"idlocation" : 17,
		"city" : "Orangjestad",
		"state" : null,
		"country" : "St. Eustatius",
		"region" : "Caribbean",
		"lat" : 17.482597,
		"lon" : -62.981295,
		"loc_def" : "exact",
		"image_file" : null,
		"file_path" : "/assets/images/41/"
	},
	{
		"idbuildings" : 134,
		"building_name" : "Honen Dalim Synagogue II",
		"year_built" : "1772",
		"year_opened" : "1773",
		"year_nonextant" : "after 1800",
		"idlocation" : 17,
		"city" : "Orangjestad",
		"state" : null,
		"country" : "St. Eustatius",
		"region" : "Caribbean",
		"lat" : 17.482597,
		"lon" : -62.981295,
		"loc_def" : "exact",
		"image_file" : "/assets/images/134/134_009.jpg",
		"file_path" : "/assets/images/134/"
	},
	{
		"idbuildings" : 38,
		"building_name" : "Kahal Kadosh Zur Israel Synagogue",
		"year_built" : "1640",
		"year_opened" : "1641",
		"year_nonextant" : "1900s",
		"idlocation" : 2,
		"city" : "Recife",
		"state" : "Pernambuco",
		"country" : "Brazil",
		"region" : "South America",
		"lat" : -8.061310,
		"lon" : -34.871320,
		"loc_def" : "exact",
		"image_file" : "/assets/images/38/038_003.png",
		"file_path" : "/assets/images/38/"
	},
	{
		"idbuildings" : 109,
		"building_name" : "Magen Abraham",
		"year_built" : "1648",
		"year_opened" : "1648",
		"year_nonextant" : "1653",
		"idlocation" : 3,
		"city" : "Mauricia",
		"state" : "Pernambuco",
		"country" : "Brazil",
		"region" : "South America",
		"lat" : -8.054074,
		"lon" : -34.870849,
		"loc_def" : "gen",
		"image_file" : null,
		"file_path" : "/assets/images/109/"
	},
	{
		"idbuildings" : 130,
		"building_name" : "Mickve Israel",
		"year_built" : "1820",
		"year_opened" : "1820",
		"year_nonextant" : "1829",
		"idlocation" : 27,
		"city" : "Savannah",
		"state" : "Georgia",
		"country" : "United States",
		"region" : "North America",
		"lat" : 32.083541,
		"lon" : -81.099834,
		"loc_def" : "gen",
		"image_file" : null,
		"file_path" : "/assets/images/130/"
	},
	{
		"idbuildings" : 113,
		"building_name" : "Mikve Israel II",
		"year_built" : "1692",
		"year_opened" : "1692",
		"year_nonextant" : "1703",
		"idlocation" : 6,
		"city" : "Willemstad",
		"state" : null,
		"country" : "Curacao",
		"region" : "Caribbean",
		"lat" : 12.104742,
		"lon" : -68.932670,
		"loc_def" : "gen",
		"image_file" : null,
		"file_path" : "/assets/images/113/"
	},
	{
		"idbuildings" : 114,
		"building_name" : "Mikve Israel III",
		"year_built" : "1703",
		"year_opened" : "1703",
		"year_nonextant" : "1730",
		"idlocation" : 6,
		"city" : "Willemstad",
		"state" : null,
		"country" : "Curacao",
		"region" : "Caribbean",
		"lat" : 12.104826,
		"lon" : -68.933468,
		"loc_def" : "est",
		"image_file" : null,
		"file_path" : "/assets/images/114/"
	},
	{
		"idbuildings" : 43,
		"building_name" : "Mikve Israel Synagogue (IV)",
		"year_built" : "1730",
		"year_opened" : "1732",
		"year_nonextant" : null,
		"idlocation" : 6,
		"city" : "Willemstad",
		"state" : null,
		"country" : "Curacao",
		"region" : "Caribbean",
		"lat" : 12.105110,
		"lon" : -68.932573,
		"loc_def" : "exact",
		"image_file" : "/assets/images/43/043_045.jpg",
		"file_path" : "/assets/images/43/"
	},
	{
		"idbuildings" : 125,
		"building_name" : "Mikveh Israel",
		"year_built" : "1782-83",
		"year_opened" : "1782",
		"year_nonextant" : "1825",
		"idlocation" : 26,
		"city" : "Philadelphia",
		"state" : "Pennsylvania",
		"country" : "United States",
		"region" : "North America",
		"lat" : 39.953073,
		"lon" : -75.145040,
		"loc_def" : "est",
		"image_file" : null,
		"file_path" : "/assets/images/125/"
	},
	{
		"idbuildings" : 40,
		"building_name" : "Mikveh Yisrael Synagogue",
		"year_built" : "1796",
		"year_opened" : "1796",
		"year_nonextant" : "1895",
		"idlocation" : 15,
		"city" : "Spanish Town",
		"state" : null,
		"country" : "Jamaica",
		"region" : "Caribbean",
		"lat" : 17.996759,
		"lon" : -76.957072,
		"loc_def" : "exact",
		"image_file" : null,
		"file_path" : "/assets/images/40/"
	},
	{
		"idbuildings" : 33,
		"building_name" : "Mill Street Synagogue, Shearith Israel I",
		"year_built" : "1730",
		"year_opened" : "1730",
		"year_nonextant" : "1818",
		"idlocation" : 24,
		"city" : "New York",
		"state" : "New York",
		"country" : "United States",
		"region" : "North America",
		"lat" : 40.705016,
		"lon" : -74.010199,
		"loc_def" : "exact",
		"image_file" : "/assets/images/33/033_007.jpg",
		"file_path" : "/assets/images/33/"
	},
	{
		"idbuildings" : 127,
		"building_name" : "Nefusot Yehuda, Flemish Synagogue",
		"year_built" : "1799",
		"year_opened" : "1799",
		"year_nonextant" : null,
		"idlocation" : 21,
		"city" : "Gibraltar",
		"state" : null,
		"country" : "United Kingdom",
		"region" : "Southern Europe",
		"lat" : 36.139120,
		"lon" : -5.354610,
		"loc_def" : "exact",
		"image_file" : null,
		"file_path" : "/assets/images/127/"
	},
	{
		"idbuildings" : 117,
		"building_name" : "Neve Shalom",
		"year_built" : "1746",
		"year_opened" : "1746",
		"year_nonextant" : "1864",
		"idlocation" : 6,
		"city" : "Willemstad",
		"state" : null,
		"country" : "Curacao",
		"region" : "Caribbean",
		"lat" : 12.107819,
		"lon" : -68.935972,
		"loc_def" : "est",
		"image_file" : null,
		"file_path" : "/assets/images/117/"
	},
	{
		"idbuildings" : 100,
		"building_name" : "Neve Shalom",
		"year_built" : "1835",
		"year_opened" : "1837",
		"year_nonextant" : null,
		"idlocation" : 11,
		"city" : "Paramaribo",
		"state" : null,
		"country" : "Suriname",
		"region" : "South America",
		"lat" : 5.828455,
		"lon" : -55.159240,
		"loc_def" : "exact",
		"image_file" : "/assets/images/100/100_003.png",
		"file_path" : "/assets/images/100/"
	},
	{
		"idbuildings" : 139,
		"building_name" : "Neve Shalom I",
		"year_built" : null,
		"year_opened" : "1732",
		"year_nonextant" : null,
		"idlocation" : 6,
		"city" : "Willemstad",
		"state" : null,
		"country" : "Curacao",
		"region" : "Caribbean",
		"lat" : 12.107819,
		"lon" : -68.935972,
		"loc_def" : "est",
		"image_file" : null,
		"file_path" : "/assets/images/139/"
	},
	{
		"idbuildings" : 140,
		"building_name" : "Neve Shalom II",
		"year_built" : null,
		"year_opened" : "1734",
		"year_nonextant" : null,
		"idlocation" : 6,
		"city" : "Willemstad",
		"state" : null,
		"country" : "Curacao",
		"region" : "Caribbean",
		"lat" : 12.107819,
		"lon" : -68.935972,
		"loc_def" : "est",
		"image_file" : null,
		"file_path" : "/assets/images/140/"
	},
	{
		"idbuildings" : 111,
		"building_name" : "Neve Zedek I",
		"year_built" : "c. 1684",
		"year_opened" : "c. 1684 ",
		"year_nonextant" : "1692",
		"idlocation" : 7,
		"city" : "Port Royal",
		"state" : null,
		"country" : "Jamaica",
		"region" : "Caribbean",
		"lat" : 17.938222,
		"lon" : -76.841573,
		"loc_def" : "gen",
		"image_file" : null,
		"file_path" : "/assets/images/111/"
	},
	{
		"idbuildings" : 112,
		"building_name" : "Neve Zedek II",
		"year_built" : "c. 1719",
		"year_opened" : "c. 1719",
		"year_nonextant" : "1815 est. ",
		"idlocation" : 7,
		"city" : "Port Royal",
		"state" : null,
		"country" : "Jamaica",
		"region" : "Caribbean",
		"lat" : 17.938222,
		"lon" : -76.841573,
		"loc_def" : "gen",
		"image_file" : null,
		"file_path" : "/assets/images/112/"
	},
	{
		"idbuildings" : 137,
		"building_name" : "Neveh Shalom",
		"year_built" : null,
		"year_opened" : "1612",
		"year_nonextant" : null,
		"idlocation" : 1,
		"city" : "Amsterdam",
		"state" : null,
		"country" : "Netherlands",
		"region" : "Western Europe",
		"lat" : 52.368346,
		"lon" : 4.902987,
		"loc_def" : "exact",
		"image_file" : "/assets/images/137/137_005.png",
		"file_path" : "/assets/images/137/"
	},
	{
		"idbuildings" : 35,
		"building_name" : "Neveh Shalom Synagogue",
		"year_built" : "1718",
		"year_opened" : "1719",
		"year_nonextant" : "1835",
		"idlocation" : 11,
		"city" : "Paramaribo",
		"state" : null,
		"country" : "Suriname",
		"region" : "South America",
		"lat" : 5.828455,
		"lon" : -55.159240,
		"loc_def" : "exact",
		"image_file" : null,
		"file_path" : "/assets/images/35/"
	},
	{
		"idbuildings" : 39,
		"building_name" : "Neveh Shalom Synagogue",
		"year_built" : "1704",
		"year_opened" : "1704",
		"year_nonextant" : "1907",
		"idlocation" : 15,
		"city" : "Spanish Town",
		"state" : null,
		"country" : "Jamaica",
		"region" : "Caribbean",
		"lat" : 17.996980,
		"lon" : -76.952828,
		"loc_def" : "exact",
		"image_file" : "/assets/images/39/039_002.jpg",
		"file_path" : "/assets/images/39/"
	},
	{
		"idbuildings" : 29,
		"building_name" : "New Synagogue [Bricklayer's Hall]",
		"year_built" : null,
		"year_opened" : "1761",
		"year_nonextant" : null,
		"idlocation" : 8,
		"city" : "London",
		"state" : null,
		"country" : "England",
		"region" : "Western Europe",
		"lat" : 51.513150,
		"lon" : -0.079438,
		"loc_def" : "exact",
		"image_file" : "/assets/images/29/029_001.png",
		"file_path" : "/assets/images/29/"
	},
	{
		"idbuildings" : 13,
		"building_name" : "Nidhe Israel",
		"year_built" : null,
		"year_opened" : "1654",
		"year_nonextant" : "1831",
		"idlocation" : 4,
		"city" : "Bridgetown",
		"state" : null,
		"country" : "Barbados",
		"region" : "Caribbean",
		"lat" : 13.099444,
		"lon" : -59.615278,
		"loc_def" : "exact",
		"image_file" : "/assets/images/13/013_004.jpg",
		"file_path" : "/assets/images/13/"
	},
	{
		"idbuildings" : 97,
		"building_name" : "Nidhe Israel",
		"year_built" : null,
		"year_opened" : "1833",
		"year_nonextant" : null,
		"idlocation" : 4,
		"city" : "Bridgetown",
		"state" : null,
		"country" : "Barbados",
		"region" : "Caribbean",
		"lat" : 13.099444,
		"lon" : -59.615278,
		"loc_def" : "exact",
		"image_file" : "/assets/images/97/097_001.jpg",
		"file_path" : "/assets/images/97/"
	},
	{
		"idbuildings" : 11,
		"building_name" : "Nieuwe Ashkenazic Synagogue",
		"year_built" : null,
		"year_opened" : "1752",
		"year_nonextant" : null,
		"idlocation" : 1,
		"city" : "Amsterdam",
		"state" : null,
		"country" : "Netherlands",
		"region" : "Western Europe",
		"lat" : 52.367077,
		"lon" : 4.904008,
		"loc_def" : "exact",
		"image_file" : "/assets/images/11/011_004.jpg",
		"file_path" : "/assets/images/11/"
	},
	{
		"idbuildings" : 9,
		"building_name" : "Obbene Shul Synagogue",
		"year_built" : null,
		"year_opened" : "1686",
		"year_nonextant" : null,
		"idlocation" : 1,
		"city" : "Amsterdam",
		"state" : null,
		"country" : "Netherlands",
		"region" : "Western Europe",
		"lat" : 52.367139,
		"lon" : 4.903745,
		"loc_def" : "exact",
		"image_file" : "/assets/images/9/009_003.jpg",
		"file_path" : "/assets/images/9/"
	},
	{
		"idbuildings" : 37,
		"building_name" : "Rodeph Shalom",
		"year_built" : null,
		"year_opened" : "1795",
		"year_nonextant" : "1855",
		"idlocation" : 26,
		"city" : "Philadelphia",
		"state" : "Pennsylvania",
		"country" : "United States",
		"region" : "North America",
		"lat" : 39.963847,
		"lon" : -75.160589,
		"loc_def" : "exact",
		"image_file" : null,
		"file_path" : "/assets/images/37/"
	},
	{
		"idbuildings" : 116,
		"building_name" : "Santa Irmandad",
		"year_built" : "1710s",
		"year_opened" : "1710s",
		"year_nonextant" : "1720",
		"idlocation" : 22,
		"city" : "Tucacas",
		"state" : null,
		"country" : "Venezuala",
		"region" : "South America",
		"lat" : 10.797778,
		"lon" : -68.317500,
		"loc_def" : "gen",
		"image_file" : null,
		"file_path" : "/assets/images/116/"
	},
	{
		"idbuildings" : 105,
		"building_name" : "Semah David Synogogue",
		"year_built" : "1660s-70s",
		"year_opened" : "1660s-70s",
		"year_nonextant" : "1739",
		"idlocation" : 5,
		"city" : "Speightstown",
		"state" : null,
		"country" : "Barbados",
		"region" : "Caribbean",
		"lat" : 13.252314,
		"lon" : -59.639803,
		"loc_def" : "gen",
		"image_file" : null,
		"file_path" : "/assets/images/105/"
	},
	{
		"idbuildings" : 115,
		"building_name" : "Shaar Ha Shamaim I",
		"year_built" : "c. 1704",
		"year_opened" : "c. 1704",
		"year_nonextant" : "1744",
		"idlocation" : 14,
		"city" : "Kingston",
		"state" : null,
		"country" : "Jamaica",
		"region" : "Caribbean",
		"lat" : 18.017874,
		"lon" : -76.809904,
		"loc_def" : "gen",
		"image_file" : "/assets/images/115/115_001.jpg",
		"file_path" : "/assets/images/115/"
	},
	{
		"idbuildings" : 19,
		"building_name" : "Shaar Ha Shamaim Synagogue (II)",
		"year_built" : "1744",
		"year_opened" : "1744",
		"year_nonextant" : "1882",
		"idlocation" : 14,
		"city" : "Kingston",
		"state" : null,
		"country" : "Jamaica",
		"region" : "Caribbean",
		"lat" : 17.966629,
		"lon" : -76.795324,
		"loc_def" : "exact",
		"image_file" : "/assets/images/19/019_002.png",
		"file_path" : "/assets/images/19/"
	},
	{
		"idbuildings" : 118,
		"building_name" : "Shaar Hashamayim I",
		"year_built" : "1749",
		"year_opened" : "1749",
		"year_nonextant" : "1766",
		"idlocation" : 21,
		"city" : "Gibraltar",
		"state" : null,
		"country" : "United Kingdom",
		"region" : "Southern Europe",
		"lat" : 36.142430,
		"lon" : -5.352670,
		"loc_def" : "exact",
		"image_file" : null,
		"file_path" : "/assets/images/118/"
	},
	{
		"idbuildings" : 119,
		"building_name" : "Shaar Hashamayim II",
		"year_built" : "1768",
		"year_opened" : "1768",
		"year_nonextant" : "1781",
		"idlocation" : 21,
		"city" : "Gibraltar",
		"state" : null,
		"country" : "United Kingdom",
		"region" : "Southern Europe",
		"lat" : 36.142430,
		"lon" : -5.352670,
		"loc_def" : "exact",
		"image_file" : null,
		"file_path" : "/assets/images/119/"
	},
	{
		"idbuildings" : 120,
		"building_name" : "Shaar Hashamayim III, Great Synagogue of Gibraltar",
		"year_built" : "1781-83",
		"year_opened" : "1783",
		"year_nonextant" : null,
		"idlocation" : 21,
		"city" : "Gibraltar",
		"state" : null,
		"country" : "United Kingdom",
		"region" : "Southern Europe",
		"lat" : 36.142430,
		"lon" : -5.352670,
		"loc_def" : "exact",
		"image_file" : null,
		"file_path" : "/assets/images/120/"
	},
	{
		"idbuildings" : 104,
		"building_name" : "Shaare Shalom",
		"year_built" : "1911",
		"year_opened" : "1913",
		"year_nonextant" : null,
		"idlocation" : 14,
		"city" : "Kingston",
		"state" : null,
		"country" : "Jamaica",
		"region" : "Caribbean",
		"lat" : 17.975076,
		"lon" : -76.790106,
		"loc_def" : "exact",
		"image_file" : null,
		"file_path" : "/assets/images/104/"
	},
	{
		"idbuildings" : 20,
		"building_name" : "Shaare Yosher",
		"year_built" : "1788",
		"year_opened" : "1789",
		"year_nonextant" : "1837",
		"idlocation" : 14,
		"city" : "Kingston",
		"state" : null,
		"country" : "Jamaica",
		"region" : "Caribbean",
		"lat" : 17.968479,
		"lon" : -76.792010,
		"loc_def" : "exact",
		"image_file" : null,
		"file_path" : "/assets/images/20/"
	},
	{
		"idbuildings" : 143,
		"building_name" : "Shaare Yosher (II)",
		"year_built" : "1837",
		"year_opened" : "1837",
		"year_nonextant" : "1882",
		"idlocation" : 14,
		"city" : "Kingston",
		"state" : null,
		"country" : "Jamaica",
		"region" : "Caribbean",
		"lat" : 17.968479,
		"lon" : -76.792010,
		"loc_def" : "exact",
		"image_file" : "/assets/images/143/143_001.png",
		"file_path" : "/assets/images/143/"
	},
	{
		"idbuildings" : 103,
		"building_name" : "Shearith Israel",
		"year_built" : null,
		"year_opened" : "1897",
		"year_nonextant" : null,
		"idlocation" : 24,
		"city" : "New York",
		"state" : "New York",
		"country" : "United States",
		"region" : "North America",
		"lat" : 40.774861,
		"lon" : -73.977306,
		"loc_def" : "exact",
		"image_file" : "/assets/images/103/103_001.jpg",
		"file_path" : "/assets/images/103/"
	},
	{
		"idbuildings" : 121,
		"building_name" : "Shearith Israel",
		"year_built" : "1777-78",
		"year_opened" : "1777",
		"year_nonextant" : "1824",
		"idlocation" : 30,
		"city" : "Montreal",
		"state" : "Quebec",
		"country" : "Canada",
		"region" : "North America",
		"lat" : 45.506340,
		"lon" : -73.556519,
		"loc_def" : "est",
		"image_file" : null,
		"file_path" : "/assets/images/121/"
	},
	{
		"idbuildings" : 129,
		"building_name" : "Shearith Israel (II)",
		"year_built" : "1817-18",
		"year_opened" : "1818",
		"year_nonextant" : "1833",
		"idlocation" : 24,
		"city" : "New York",
		"state" : "New York",
		"country" : "United States",
		"region" : "North America",
		"lat" : 40.705016,
		"lon" : -74.010199,
		"loc_def" : "exact",
		"image_file" : null,
		"file_path" : "/assets/images/129/"
	},
	{
		"idbuildings" : 107,
		"building_name" : "Synagogue",
		"year_built" : "1684",
		"year_opened" : "1684",
		"year_nonextant" : "1772",
		"idlocation" : 16,
		"city" : "Charlestown",
		"state" : null,
		"country" : "Nevis",
		"region" : "Caribbean",
		"lat" : 17.137629,
		"lon" : -62.627575,
		"loc_def" : "exact",
		"image_file" : null,
		"file_path" : "/assets/images/107/"
	},
	{
		"idbuildings" : 108,
		"building_name" : "Synagogue",
		"year_built" : "1764",
		"year_opened" : "1764",
		"year_nonextant" : "1765",
		"idlocation" : 31,
		"city" : "Christiansted",
		"state" : null,
		"country" : "St. Croix",
		"region" : "Caribbean",
		"lat" : 17.744036,
		"lon" : -64.714997,
		"loc_def" : "gen",
		"image_file" : null,
		"file_path" : "/assets/images/108/"
	},
	{
		"idbuildings" : 42,
		"building_name" : "Synagogue Cassipora",
		"year_built" : "1671",
		"year_opened" : "1671",
		"year_nonextant" : "1685",
		"idlocation" : 9,
		"city" : "Cassipora",
		"state" : null,
		"country" : "Suriname",
		"region" : "South America",
		"lat" : 5.411667,
		"lon" : -54.978056,
		"loc_def" : "est",
		"image_file" : null,
		"file_path" : "/assets/images/42/"
	},
	{
		"idbuildings" : 6,
		"building_name" : "Talmud Torah, Portuguese Synagogue I",
		"year_built" : "1636",
		"year_opened" : "1639",
		"year_nonextant" : "1931",
		"idlocation" : 1,
		"city" : "Amsterdam",
		"state" : null,
		"country" : "Netherlands",
		"region" : "Western Europe",
		"lat" : 52.368346,
		"lon" : 4.902987,
		"loc_def" : "exact",
		"image_file" : "/assets/images/6/006_001.jpg",
		"file_path" : "/assets/images/6/"
	},
	{
		"idbuildings" : 102,
		"building_name" : "Temple Emanuel",
		"year_built" : null,
		"year_opened" : "1867",
		"year_nonextant" : null,
		"idlocation" : 6,
		"city" : "Willemstad",
		"state" : null,
		"country" : "Curacao",
		"region" : "Caribbean",
		"lat" : 12.104168,
		"lon" : -68.932747,
		"loc_def" : "exact",
		"image_file" : null,
		"file_path" : "/assets/images/102/"
	},
	{
		"idbuildings" : 141,
		"building_name" : "The Hambro Synagogue [Moses Marcus' Shul]",
		"year_built" : null,
		"year_opened" : "1707",
		"year_nonextant" : "1725",
		"idlocation" : 8,
		"city" : "London",
		"state" : null,
		"country" : "England",
		"region" : "Western Europe",
		"lat" : 51.511911,
		"lon" : -0.078746,
		"loc_def" : "exact",
		"image_file" : null,
		"file_path" : "/assets/images/141/"
	},
	{
		"idbuildings" : 23,
		"building_name" : "The Hambro Synagogue [Wolf Prager's Shul]",
		"year_built" : "1721",
		"year_opened" : "1725",
		"year_nonextant" : "1893",
		"idlocation" : 8,
		"city" : "London",
		"state" : null,
		"country" : "England",
		"region" : "Western Europe",
		"lat" : 51.511911,
		"lon" : -0.078746,
		"loc_def" : "exact",
		"image_file" : "/assets/images/23/023_001.png",
		"file_path" : "/assets/images/23/"
	},
	{
		"idbuildings" : 34,
		"building_name" : "Touro Synagogue",
		"year_built" : "1759",
		"year_opened" : "1763",
		"year_nonextant" : null,
		"idlocation" : 25,
		"city" : "Newport",
		"state" : "Rhode Island",
		"country" : "United States",
		"region" : "North America",
		"lat" : 41.489444,
		"lon" : -71.311944,
		"loc_def" : "exact",
		"image_file" : "/assets/images/34/034_037.jpg",
		"file_path" : "/assets/images/34/"
	},
	{
		"idbuildings" : 36,
		"building_name" : "Tzedek ve-Shalom Synagogue",
		"year_built" : "1735",
		"year_opened" : "1735",
		"year_nonextant" : null,
		"idlocation" : 11,
		"city" : "Paramaribo",
		"state" : null,
		"country" : "Suriname",
		"region" : "South America",
		"lat" : 5.828858,
		"lon" : -55.156256,
		"loc_def" : "exact",
		"image_file" : "/assets/images/36/036_026.png",
		"file_path" : "/assets/images/36/"
	},
	{
		"idbuildings" : 12,
		"building_name" : "Uilenburgerstraat synagoge",
		"year_built" : "1765",
		"year_opened" : "1766",
		"year_nonextant" : null,
		"idlocation" : 1,
		"city" : "Amsterdam",
		"state" : null,
		"country" : "Netherlands",
		"region" : "Western Europe",
		"lat" : 52.370217,
		"lon" : 4.905330,
		"loc_def" : "exact",
		"image_file" : "/assets/images/12/012_001.jpg",
		"file_path" : "/assets/images/12/"
	},
	{
		"idbuildings" : 110,
		"building_name" : "Unknown Synagogue",
		"year_built" : null,
		"year_opened" : "1661",
		"year_nonextant" : "1667",
		"idlocation" : 19,
		"city" : "Cayenne",
		"state" : null,
		"country" : "French Guyana",
		"region" : "South America",
		"lat" : 4.919691,
		"lon" : -52.328965,
		"loc_def" : "gen",
		"image_file" : null,
		"file_path" : "/assets/images/110/"
	},
	{
		"idbuildings" : 123,
		"building_name" : "Unknown Synagogue",
		"year_built" : "1783",
		"year_opened" : "1783",
		"year_nonextant" : "before 1828",
		"idlocation" : 18,
		"city" : "Philipsburg",
		"state" : null,
		"country" : "St. Maarten",
		"region" : "Caribbean",
		"lat" : 18.022557,
		"lon" : -63.042080,
		"loc_def" : "est",
		"image_file" : null,
		"file_path" : "/assets/images/123/"
	}
]
